{
  "type": "FeatureCollection",
  "features": [
    {"type":"Feature","geometry":{"type":"Point","coordinates":[-16.0324,18.0735]},"properties":{"name":"Nouakchott","type":"Peche industrielle","pays":"Mauritanie","description":"ZEE pelagique parmi les plus riches au monde. Accords UE + flottes chinoises. Pression stocks.","sources":"FAO_Mauritania|https://www.fao.org/ EU_Fisheries|https://oceans-and-fisheries.ec.europa.eu/"}},
    {"type":"Feature","geometry":{"type":"Point","coordinates":[-17.0347,20.9331]},"properties":{"name":"Nouadhibou (port peche)","type":"Peche industrielle","pays":"Mauritanie","description":"1er port peche Afrique de l'Ouest. Flotte merlue + poulpe. Activite illicite documentee.","sources":"FAO|https://www.fao.org/ Environmental_Justice_Foundation|https://ejfoundation.org/"}},
    {"type":"Feature","geometry":{"type":"Point","coordinates":[-17.4437,14.6686]},"properties":{"name":"Dakar (Soumbedioune)","type":"Peche industrielle","pays":"Senegal","description":"Hub peche ouest-africaine. Concurrence flottes chinoises (IUU - peche illicite). Sujet politique 2024-2026.","sources":"FAO_Senegal|https://www.fao.org/ Greenpeace_Africa|https://www.greenpeace.org/africa/"}},
    {"type":"Feature","geometry":{"type":"Point","coordinates":[-17.5900,15.8700]},"properties":{"name":"Saint-Louis (peche)","type":"Peche industrielle","pays":"Senegal","description":"Port peche artisanale + industrielle. Frontiere maritime Mauritanie, tensions recurrentes.","sources":"FAO|https://www.fao.org/ ISS_Africa|https://issafrica.org"}},
    {"type":"Feature","geometry":{"type":"Point","coordinates":[-4.0085,5.2940]},"properties":{"name":"Abidjan (peche)","type":"Peche industrielle","pays":"Cote d'Ivoire","description":"2e hub thonier africain atlantique. Flotte CFP/ICCAT. Concurrence chinoise.","sources":"ICCAT|https://www.iccat.int/ PAA_Abidjan|https://www.portabidjan.ci"}},
    {"type":"Feature","geometry":{"type":"Point","coordinates":[-1.7560,4.9181]},"properties":{"name":"Takoradi (peche)","type":"Peche industrielle","pays":"Ghana","description":"Port peche industrielle Ghana. Flottes espagnoles/ghaneennes. Stocks sardinelles en baisse.","sources":"FAO|https://www.fao.org/ GPHA_Ghana|https://ghanaports.gov.gh"}},
    {"type":"Feature","geometry":{"type":"Point","coordinates":[14.5083,-22.9576]},"properties":{"name":"Walvis Bay (peche)","type":"Peche industrielle","pays":"Namibie","description":"1er port peche Namibie. Merlu + chinchard. MSC certification partiellement.","sources":"MFMR_Namibia|https://mfmr.gov.na"}},
    {"type":"Feature","geometry":{"type":"Point","coordinates":[55.4508,-4.6192]},"properties":{"name":"Victoria (Seychelles)","type":"Peche industrielle","pays":"Seychelles","description":"1er port thonier ocean Indien occidental. Flottes espagnoles/francaises/coreennes. Marche UE.","sources":"IOTC|https://www.iotc.org SFA_Seychelles|https://www.sfa.sc"}},
    {"type":"Feature","geometry":{"type":"Point","coordinates":[57.5012,-20.1619]},"properties":{"name":"Port Louis (Maurice)","type":"Peche industrielle","pays":"Maurice","description":"Hub thonier + conteneurs. Flottes UE + accords SIOFA.","sources":"MPA_Mauritius|https://www.mauport.com"}},
    {"type":"Feature","geometry":{"type":"Point","coordinates":[49.2952,-12.2788]},"properties":{"name":"Antsiranana (Diego Suarez)","type":"Peche industrielle","pays":"Madagascar","description":"Port naturel nord Madagascar. Peche thoniere + crevettiere. Hub Canal du Mozambique.","sources":"SPAT_Madagascar|https://www.spat.mg/"}},
    {"type":"Feature","geometry":{"type":"Point","coordinates":[43.6843,-23.3557]},"properties":{"name":"Toliara","type":"Peche industrielle","pays":"Madagascar","description":"Port sud-ouest Madagascar. Peche artisanale + crevettes.","sources":"SPAT_Madagascar|https://www.spat.mg/"}},
    {"type":"Feature","geometry":{"type":"Point","coordinates":[39.0983,-5.0696]},"properties":{"name":"Tanga","type":"Peche industrielle","pays":"Tanzanie","description":"Port nord Tanzanie. Peche cotiere + export Kenya.","sources":"TPA_Tanzania|https://ports.go.tz"}},
    {"type":"Feature","geometry":{"type":"Point","coordinates":[39.6636,-4.0587]},"properties":{"name":"Mombasa (peche)","type":"Peche industrielle","pays":"Kenya","description":"Port peche Kenya. Thons atlantique-indien. IOTC.","sources":"IOTC|https://www.iotc.org KFS_Kenya|http://www.kenyafisheriesservice.go.ke"}}
  ]
}
